[{"country": "AR", "lat": -34.61315, "lng": -58.37723, "name": "Buenos Aires"}, {"country": "MX", "lat": 19.42847, "lng": -99.12766, "name": "Mexico City"}, {"country": "CN", "lat": 39.9075, "lng": 116.39723, "name": "Beijing"}, {"country": "PH", "lat": 14.6042, "lng": 120.9822, "name": "Manila"}, {"country": "RU", "lat": 55.75222, "lng": 37.61556, "name": "Moscow"}, {"country": "BD", "lat": 23.7104, "lng": 90.40744, "name": "Dhaka"}, {"country": "KR", "lat": 37.566, "lng": 126.9784, "name": "Seoul"}, {"country": "ID", "lat": -6.21462, "lng": 106.84513, "name": "Jakarta"}, {"country": "JP", "lat": 35.6895, "lng": 139.69171, "name": "Tokyo"}, {"country": "TW", "lat": 25.04776, "lng": 121.53185, "name": "Taipei"}, {"country": "CD", "lat": -4.32758, "lng": 15.31357, "name": "Kinshasa"}, {"country": "PE", "lat": -12.04318, "lng": -77.02824, "name": "Lima"}, {"country": "EG", "lat": 30.06263, "lng": 31.24967, "name": "Cairo"}, {"country": "CO", "lat": 4.60971, "lng": -74.08175, "name": "Bogot\u00e1"}, {"country": "GB", "lat": 51.50853, "lng": -0.12574, "name": "London"}, {"country": "IR", "lat": 35.69439, "lng": 51.42151, "name": "Tehr\u0101n"}, {"country": "HK", "lat": 22.28552, "lng": 114.15769, "name": "Hong Kong"}, {"country": "IQ", "lat": 33.34058, "lng": 44.40088, "name": "Baghdad"}, {"country": "TH", "lat": 13.75398, "lng": 100.50144, "name": "Bangkok"}, {"country": "CL", "lat": -33.45694, "lng": -70.64827, "name": "Santiago"}, {"country": "SA", "lat": 24.68773, "lng": 46.72185, "name": "Riyadh"}, {"country": "SG", "lat": 1.28967, "lng": 103.85007, "name": "Singapore"}, {"country": "TR", "lat": 39.91987, "lng": 32.85427, "name": "Ankara"}, {"country": "DE", "lat": 52.52437, "lng": 13.41053, "name": "Berlin"}, {"country": "ES", "lat": 40.4165, "lng": -3.70256, "name": "Madrid"}, {"country": "KP", "lat": 39.03385, "lng": 125.75432, "name": "Pyongyang"}, {"country": "AF", "lat": 34.52813, "lng": 69.17233, "name": "Kabul"}, {"country": "VE", "lat": 10.48801, "lng": -66.87919, "name": "Caracas"}, {"country": "UA", "lat": 50.45466, "lng": 30.5238, "name": "Kiev"}, {"country": "AO", "lat": -8.83682, "lng": 13.23432, "name": "Luanda"}, {"country": "ET", "lat": 9.02497, "lng": 38.74689, "name": "Addis Ababa"}, {"country": "KE", "lat": -1.28333, "lng": 36.81667, "name": "Nairobi"}, {"country": "SO", "lat": 2.03711, "lng": 45.34375, "name": "Mogadishu"}, {"country": "SN", "lat": 14.6937, "lng": -17.44406, "name": "Dakar"}, {"country": "IT", "lat": 41.89193, "lng": 12.51133, "name": "Rome"}, {"country": "BR", "lat": -15.77972, "lng": -47.92972, "name": "Bras\u00edlia"}, {"country": "DO", "lat": 18.50012, "lng": -69.98857, "name": "Santo Domingo"}, {"country": "CU", "lat": 23.13302, "lng": -82.38304, "name": "Havana"}, {"country": "FR", "lat": 48.85341, "lng": 2.3488, "name": "Paris"}, {"country": "UZ", "lat": 41.26465, "lng": 69.21627, "name": "Tashkent"}, {"country": "DZ", "lat": 36.7525, "lng": 3.04197, "name": "Algiers"}, {"country": "SD", "lat": 15.55177, "lng": 32.53241, "name": "Khartoum"}, {"country": "GH", "lat": 5.55602, "lng": -0.1969, "name": "Accra"}, {"country": "YE", "lat": 15.35472, "lng": 44.20667, "name": "Sanaa"}, {"country": "LB", "lat": 33.88894, "lng": 35.49442, "name": "Beirut"}, {"country": "RO", "lat": 44.43225, "lng": 26.10626, "name": "Bucharest"}, {"country": "GN", "lat": 9.53795, "lng": -13.67729, "name": "Conakry"}, {"country": "BY", "lat": 53.9, "lng": 27.56667, "name": "Minsk"}, {"country": "HU", "lat": 47.49801, "lng": 19.03991, "name": "Budapest"}, {"country": "PL", "lat": 52.22977, "lng": 21.01178, "name": "Warsaw"}, {"country": "AT", "lat": 48.20849, "lng": 16.37208, "name": "Vienna"}, {"country": "MA", "lat": 34.01325, "lng": -6.83255, "name": "Rabat"}, {"country": "ZA", "lat": -25.74486, "lng": 28.18783, "name": "Pretoria"}, {"country": "KH", "lat": 11.56245, "lng": 104.91601, "name": "Phnom Penh"}, {"country": "SY", "lat": 33.5102, "lng": 36.29128, "name": "Damascus"}, {"country": "ZW", "lat": -17.82772, "lng": 31.05337, "name": "Harare"}, {"country": "PY", "lat": -25.30066, "lng": -57.63591, "name": "Asunci\u00f3n"}, {"country": "MY", "lat": 3.1412, "lng": 101.68653, "name": "Kuala Lumpur"}, {"country": "NP", "lat": 27.70169, "lng": 85.3206, "name": "Kathmandu"}, {"country": "VN", "lat": 21.0245, "lng": 105.84117, "name": "Hanoi"}, {"country": "EC", "lat": -0.22985, "lng": -78.52495, "name": "Quito"}, {"country": "MG", "lat": -18.91368, "lng": 47.53613, "name": "Antananarivo"}, {"country": "UG", "lat": 0.31628, "lng": 32.58219, "name": "Kampala"}, {"country": "CM", "lat": 3.86667, "lng": 11.51667, "name": "Yaound\u00e9"}, {"country": "ML", "lat": 12.65, "lng": -8.0, "name": "Bamako"}, {"country": "CG", "lat": -4.26613, "lng": 15.28318, "name": "Brazzaville"}, {"country": "JO", "lat": 31.95522, "lng": 35.94503, "name": "Amman"}, {"country": "RS", "lat": 44.80401, "lng": 20.46513, "name": "Belgrade"}, {"country": "UY", "lat": -34.90328, "lng": -56.18816, "name": "Montevideo"}, {"country": "ZM", "lat": -15.40669, "lng": 28.28713, "name": "Lusaka"}, {"country": "SE", "lat": 59.33258, "lng": 18.0649, "name": "Stockholm"}, {"country": "HT", "lat": 18.53917, "lng": -72.335, "name": "Port-au-Prince"}, {"country": "MZ", "lat": -25.96553, "lng": 32.58322, "name": "Maputo"}, {"country": "CZ", "lat": 50.08804, "lng": 14.42076, "name": "Prague"}, {"country": "DK", "lat": 55.67594, "lng": 12.56553, "name": "Copenhagen"}, {"country": "BG", "lat": 42.69751, "lng": 23.32415, "name": "Sofia"}, {"country": "LY", "lat": 32.87519, "lng": 13.18746, "name": "Tripoli"}, {"country": "AZ", "lat": 40.37767, "lng": 49.89201, "name": "Baku"}, {"country": "AM", "lat": 40.18111, "lng": 44.51361, "name": "Yerevan"}, {"country": "BF", "lat": 12.36566, "lng": -1.53388, "name": "Ouagadougou"}, {"country": "GE", "lat": 41.69411, "lng": 44.83368, "name": "Tbilisi"}, {"country": "IE", "lat": 53.33306, "lng": -6.24889, "name": "Dublin"}, {"country": "BE", "lat": 50.85045, "lng": 4.34878, "name": "Brussels"}, {"country": "GT", "lat": 14.64072, "lng": -90.51327, "name": "Guatemala City"}, {"country": "NI", "lat": 12.13282, "lng": -86.2504, "name": "Managua"}, {"country": "LR", "lat": 6.30054, "lng": -10.7969, "name": "Monrovia"}, {"country": "JM", "lat": 17.99702, "lng": -76.79358, "name": "Kingston"}, {"country": "MM", "lat": 19.745, "lng": 96.12972, "name": "Nay Pyi Taw"}, {"country": "KG", "lat": 42.87, "lng": 74.59, "name": "Bishkek"}, {"country": "HN", "lat": 14.0818, "lng": -87.20681, "name": "Tegucigalpa"}, {"country": "MN", "lat": 47.90771, "lng": 106.88324, "name": "Ulaanbaatar"}, {"country": "CA", "lat": 45.41117, "lng": -75.69812, "name": "Ottawa"}, {"country": "SL", "lat": 8.484, "lng": -13.22994, "name": "Freetown"}, {"country": "OM", "lat": 23.61387, "lng": 58.5922, "name": "Muscat"}, {"country": "NE", "lat": 13.51366, "lng": 2.1098, "name": "Niamey"}, {"country": "TG", "lat": 6.13748, "lng": 1.21227, "name": "Lom\u00e9"}, {"country": "RW", "lat": -1.94995, "lng": 30.05885, "name": "Kigali"}, {"country": "LV", "lat": 56.946, "lng": 24.10589, "name": "Riga"}, {"country": "NL", "lat": 52.37403, "lng": 4.88969, "name": "Amsterdam"}, {"country": "TM", "lat": 37.95, "lng": 58.38333, "name": "Ashgabat"}, {"country": "TD", "lat": 12.10672, "lng": 15.0444, "name": "N'Djamena"}, {"country": "HR", "lat": 45.81444, "lng": 15.97798, "name": "Zagreb"}, {"country": "BA", "lat": 43.84864, "lng": 18.35644, "name": "Sarajevo"}, {"country": "TN", "lat": 36.81897, "lng": 10.16579, "name": "Tunis"}, {"country": "TJ", "lat": 38.53575, "lng": 68.77905, "name": "Dushanbe"}, {"country": "GR", "lat": 37.97945, "lng": 23.71622, "name": "Athens"}, {"country": "MR", "lat": 18.08581, "lng": -15.9785, "name": "Nouakchott"}, {"country": "LK", "lat": 6.93194, "lng": 79.84778, "name": "Colombo"}, {"country": "MW", "lat": -13.96692, "lng": 33.78725, "name": "Lilongwe"}, {"country": "MD", "lat": 47.00556, "lng": 28.8575, "name": "Chi\u015fin\u0103u"}, {"country": "DJ", "lat": 11.58901, "lng": 43.14503, "name": "Djibouti"}, {"country": "AE", "lat": 24.46667, "lng": 54.36667, "name": "Abu Dhabi"}, {"country": "US", "lat": 38.89511, "lng": -77.03637, "name": "Washington, D.C."}, {"country": "PK", "lat": 33.72148, "lng": 73.04329, "name": "Islamabad"}, {"country": "NG", "lat": 9.05785, "lng": 7.49508, "name": "Abuja"}, {"country": "NO", "lat": 59.91273, "lng": 10.74609, "name": "Oslo"}, {"country": "GA", "lat": 0.39241, "lng": 9.45356, "name": "Libreville"}, {"country": "ER", "lat": 15.33805, "lng": 38.93184, "name": "Asmara"}, {"country": "FI", "lat": 60.16952, "lng": 24.93545, "name": "Helsinki"}, {"country": "XK", "lat": 42.67272, "lng": 21.16688, "name": "Pristina"}, {"country": "CF", "lat": 4.36122, "lng": 18.55496, "name": "Bangui"}, {"country": "LT", "lat": 54.68916, "lng": 25.2798, "name": "Vilnius"}, {"country": "SV", "lat": 13.68935, "lng": -89.18718, "name": "San Salvador"}, {"country": "MO", "lat": 22.20056, "lng": 113.54611, "name": "Macau"}, {"country": "PT", "lat": 38.71667, "lng": -9.13333, "name": "Lisbon"}, {"country": "MK", "lat": 41.99646, "lng": 21.43141, "name": "Skopje"}, {"country": "SK", "lat": 48.14816, "lng": 17.10674, "name": "Bratislava"}, {"country": "PR", "lat": 18.46633, "lng": -66.10572, "name": "San Juan"}, {"country": "PA", "lat": 8.9936, "lng": -79.51973, "name": "Panam\u00e1"}, {"country": "EE", "lat": 59.43696, "lng": 24.75353, "name": "Tallinn"}, {"country": "GW", "lat": 11.86357, "lng": -15.59767, "name": "Bissau"}, {"country": "NZ", "lat": -41.28664, "lng": 174.77557, "name": "Wellington"}, {"country": "AL", "lat": 41.3275, "lng": 19.81889, "name": "Tirana"}, {"country": "AU", "lat": -35.28346, "lng": 149.12807, "name": "Canberra"}, {"country": "KZ", "lat": 51.1801, "lng": 71.44598, "name": "Astana"}, {"country": "QA", "lat": 25.27932, "lng": 51.52245, "name": "Doha"}, {"country": "CR", "lat": 9.93333, "lng": -84.08333, "name": "San Jos\u00e9"}, {"country": "BI", "lat": -3.3822, "lng": 29.3644, "name": "Bujumbura"}, {"country": "IN", "lat": 28.63576, "lng": 77.22445, "name": "New Delhi"}, {"country": "SS", "lat": 4.85165, "lng": 31.58247, "name": "Juba"}, {"country": "PG", "lat": -9.44314, "lng": 147.17972, "name": "Port Moresby"}, {"country": "SI", "lat": 46.05108, "lng": 14.50513, "name": "Ljubljana"}, {"country": "NA", "lat": -22.55941, "lng": 17.08323, "name": "Windhoek"}, {"country": "GY", "lat": 6.80448, "lng": -58.15527, "name": "Georgetown"}, {"country": "BJ", "lat": 6.49646, "lng": 2.60359, "name": "Porto-Novo"}, {"country": "BS", "lat": 25.05823, "lng": -77.34306, "name": "Nassau"}, {"country": "BO", "lat": -19.03332, "lng": -65.26274, "name": "Sucre"}, {"country": "SR", "lat": 5.86638, "lng": -55.16682, "name": "Paramaribo"}, {"country": "BW", "lat": -24.65451, "lng": 25.90859, "name": "Gaborone"}, {"country": "CY", "lat": 35.16667, "lng": 33.36667, "name": "Nicosia"}, {"country": "LA", "lat": 17.96667, "lng": 102.6, "name": "Vientiane"}, {"country": "EH", "lat": 27.16224, "lng": -13.20315, "name": "La\u00e2youne / El Aai\u00fan"}, {"country": "CI", "lat": 6.82055, "lng": -5.27674, "name": "Yamoussoukro"}, {"country": "TZ", "lat": -6.17221, "lng": 35.73947, "name": "Dodoma"}, {"country": "GQ", "lat": 3.75, "lng": 8.78333, "name": "Malabo"}, {"country": "MU", "lat": -20.16194, "lng": 57.49889, "name": "Port Louis"}, {"country": "TL", "lat": -8.55861, "lng": 125.57361, "name": "Dili"}, {"country": "BH", "lat": 26.21536, "lng": 50.5832, "name": "Manama"}, {"country": "RE", "lat": -20.88231, "lng": 55.4504, "name": "Saint-Denis"}, {"country": "ME", "lat": 42.44111, "lng": 19.26361, "name": "Podgorica"}, {"country": "CW", "lat": 12.1084, "lng": -68.93354, "name": "Willemstad"}, {"country": "CH", "lat": 46.94809, "lng": 7.44744, "name": "Bern"}, {"country": "IS", "lat": 64.13548, "lng": -21.89541, "name": "Reykjav\u00edk"}, {"country": "LS", "lat": -29.31667, "lng": 27.48333, "name": "Maseru"}, {"country": "CV", "lat": 14.93152, "lng": -23.51254, "name": "Praia"}, {"country": "MV", "lat": 4.1748, "lng": 73.50888, "name": "Male"}, {"country": "BT", "lat": 27.46609, "lng": 89.64191, "name": "Thimphu"}, {"country": "BB", "lat": 13.1, "lng": -59.61667, "name": "Bridgetown"}, {"country": "NC", "lat": -22.27631, "lng": 166.4572, "name": "Noum\u00e9a"}, {"country": "MQ", "lat": 14.60892, "lng": -61.07334, "name": "Fort-de-France"}, {"country": "FJ", "lat": -18.14161, "lng": 178.44149, "name": "Suva"}, {"country": "LU", "lat": 49.61167, "lng": 6.13, "name": "Luxembourg"}, {"country": "SZ", "lat": -26.31667, "lng": 31.13333, "name": "Mbabane"}, {"country": "BN", "lat": 4.94029, "lng": 114.94806, "name": "Bandar Seri Begawan"}, {"country": "GF", "lat": 4.93333, "lng": -52.33333, "name": "Cayenne"}, {"country": "KW", "lat": 29.36972, "lng": 47.97833, "name": "Kuwait City"}, {"country": "SB", "lat": -9.43333, "lng": 159.95, "name": "Honiara"}, {"country": "YT", "lat": -12.78234, "lng": 45.22878, "name": "Mamoudzou"}, {"country": "ST", "lat": 0.33654, "lng": 6.72732, "name": "S\u00e3o Tom\u00e9"}, {"country": "TT", "lat": 10.66668, "lng": -61.51889, "name": "Port-of-Spain"}, {"country": "MP", "lat": 15.21233, "lng": 145.7545, "name": "Saipan"}, {"country": "KM", "lat": -11.70216, "lng": 43.25506, "name": "Moroni"}, {"country": "WS", "lat": -13.83333, "lng": -171.76666, "name": "Apia"}, {"country": "KI", "lat": 1.3278, "lng": 172.97696, "name": "Tarawa"}, {"country": "VU", "lat": -17.73381, "lng": 168.32188, "name": "Port-Vila"}, {"country": "GM", "lat": 13.45274, "lng": -16.57803, "name": "Banjul"}, {"country": "MC", "lat": 43.73333, "lng": 7.41667, "name": "Monaco"}, {"country": "AW", "lat": 12.52398, "lng": -70.02703, "name": "Oranjestad"}, {"country": "KY", "lat": 19.2866, "lng": -81.37436, "name": "George Town"}, {"country": "JE", "lat": 49.18804, "lng": -2.10491, "name": "Saint Helier"}, {"country": "GI", "lat": 36.14474, "lng": -5.35257, "name": "Gibraltar"}, {"country": "PF", "lat": -17.53733, "lng": -149.5665, "name": "Papeete"}, {"country": "IM", "lat": 54.15, "lng": -4.48333, "name": "Douglas"}, {"country": "MH", "lat": 7.08971, "lng": 171.38027, "name": "Majuro"}, {"country": "VC", "lat": 13.15872, "lng": -61.22475, "name": "Kingstown"}, {"country": "AG", "lat": 17.11717, "lng": -61.84573, "name": "Saint John\u2019s"}, {"country": "SC", "lat": -4.61667, "lng": 55.45, "name": "Victoria"}, {"country": "TO", "lat": -21.13938, "lng": -175.2018, "name": "Nuku\u2018alofa"}, {"country": "AD", "lat": 42.50779, "lng": 1.52109, "name": "Andorra la Vella"}, {"country": "LC", "lat": 13.9957, "lng": -61.00614, "name": "Castries"}, {"country": "VI", "lat": 18.3419, "lng": -64.9307, "name": "Charlotte Amalie"}, {"country": "DM", "lat": 15.30174, "lng": -61.38808, "name": "Roseau"}, {"country": "GG", "lat": 49.45981, "lng": -2.53527, "name": "Saint Peter Port"}, {"country": "GL", "lat": 64.18347, "lng": -51.72157, "name": "Nuuk"}, {"country": "BZ", "lat": 17.25, "lng": -88.76667, "name": "Belmopan"}, {"country": "CK", "lat": -21.20778, "lng": -159.775, "name": "Avarua"}, {"country": "FO", "lat": 62.00973, "lng": -6.77164, "name": "T\u00f3rshavn"}, {"country": "KN", "lat": 17.29484, "lng": -62.7261, "name": "Basseterre"}, {"country": "AS", "lat": -14.27806, "lng": -170.7025, "name": "Pago Pago"}, {"country": "GP", "lat": 15.99854, "lng": -61.72548, "name": "Basse-Terre"}, {"country": "AX", "lat": 60.09726, "lng": 19.93481, "name": "Mariehamn"}, {"country": "VG", "lat": 18.42693, "lng": -64.62079, "name": "Road Town"}, {"country": "GD", "lat": 12.05644, "lng": -61.74849, "name": "Saint George's"}, {"country": "MT", "lat": 35.89972, "lng": 14.51472, "name": "Valletta"}, {"country": "PM", "lat": 46.77914, "lng": -56.1773, "name": "Saint-Pierre"}, {"country": "BL", "lat": 17.89618, "lng": -62.84978, "name": "Gustavia"}, {"country": "MF", "lat": 18.06667, "lng": -63.08333, "name": "Marigot"}, {"country": "LI", "lat": 47.14151, "lng": 9.52154, "name": "Vaduz"}, {"country": "SM", "lat": 43.93667, "lng": 12.44639, "name": "San Marino"}, {"country": "TV", "lat": -8.52425, "lng": 179.19417, "name": "Funafuti"}, {"country": "TC", "lat": 21.46122, "lng": -71.14188, "name": "Cockburn Town"}, {"country": "BQ", "lat": 12.15, "lng": -68.26667, "name": "Kralendijk"}, {"country": "FK", "lat": -51.7, "lng": -57.85, "name": "Stanley"}, {"country": "SJ", "lat": 78.22334, "lng": 15.64689, "name": "Longyearbyen"}, {"country": "AI", "lat": 18.21704, "lng": -63.05783, "name": "The Valley"}, {"country": "SX", "lat": 18.026, "lng": -63.04582, "name": "Philipsburg"}, {"country": "WF", "lat": -13.28163, "lng": -176.17453, "name": "Mata-Utu"}, {"country": "GU", "lat": 13.47567, "lng": 144.74886, "name": "Hag\u00e5t\u00f1a"}, {"country": "BM", "lat": 32.2949, "lng": -64.78303, "name": "Hamilton"}, {"country": "NF", "lat": -29.05459, "lng": 167.96628, "name": "Kingston"}, {"country": "VA", "lat": 41.90236, "lng": 12.45332, "name": "Vatican City"}, {"country": "SH", "lat": -15.93872, "lng": -5.71675, "name": "Jamestown"}, {"country": "NU", "lat": -19.05952, "lng": -169.91867, "name": "Alofi"}, {"country": "CX", "lat": -10.42172, "lng": 105.67912, "name": "Flying Fish Cove"}, {"country": "CC", "lat": -12.15681, "lng": 96.82251, "name": "West Island"}, {"country": "PN", "lat": -25.06597, "lng": -130.10147, "name": "Adamstown"}, {"country": "TF", "lat": -49.35, "lng": 70.21667, "name": "Port-aux-Fran\u00e7ais"}, {"country": "GS", "lat": -54.28111, "lng": -36.5092, "name": "Grytviken"}, {"country": "FM", "lat": 6.92477, "lng": 158.16109, "name": "Palikir - National Government Center"}, {"country": "MS", "lat": 16.70555, "lng": -62.21292, "name": "Plymouth"}, {"country": "PW", "lat": 7.50043, "lng": 134.62355, "name": "Melekeok"}]