[{"name": "Andorra la Vella", "lat": 42.50779, "country": "AD", "lng": 1.52109}, {"name": "Abu Dhabi", "lat": 24.46667, "country": "AE", "lng": 54.36667}, {"name": "Kabul", "lat": 34.52813, "country": "AF", "lng": 69.17233}, {"name": "Saint John\u2019s", "lat": 17.11717, "country": "AG", "lng": -61.84573}, {"name": "The Valley", "lat": 18.21704, "country": "AI", "lng": -63.05783}, {"name": "Tirana", "lat": 41.3275, "country": "AL", "lng": 19.81889}, {"name": "Yerevan", "lat": 40.18111, "country": "AM", "lng": 44.51361}, {"name": "Luanda", "lat": -8.83682, "country": "AO", "lng": 13.23432}, {"name": "Buenos Aires", "lat": -34.61315, "country": "AR", "lng": -58.37723}, {"name": "Pago Pago", "lat": -14.27806, "country": "AS", "lng": -170.7025}, {"name": "Vienna", "lat": 48.20849, "country": "AT", "lng": 16.37208}, {"name": "Canberra", "lat": -35.28346, "country": "AU", "lng": 149.12807}, {"name": "Oranjestad", "lat": 12.52398, "country": "AW", "lng": -70.02703}, {"name": "Mariehamn", "lat": 60.09726, "country": "AX", "lng": 19.93481}, {"name": "Baku", "lat": 40.37767, "country": "AZ", "lng": 49.89201}, {"name": "Sarajevo", "lat": 43.84864, "country": "BA", "lng": 18.35644}, {"name": "Bridgetown", "lat": 13.1, "country": "BB", "lng": -59.61667}, {"name": "Dhaka", "lat": 23.7104, "country": "BD", "lng": 90.40744}, {"name": "Brussels", "lat": 50.85045, "country": "BE", "lng": 4.34878}, {"name": "Ouagadougou", "lat": 12.36566, "country": "BF", "lng": -1.53388}, {"name": "Sofia", "lat": 42.69751, "country": "BG", "lng": 23.32415}, {"name": "Manama", "lat": 26.21536, "country": "BH", "lng": 50.5832}, {"name": "Bujumbura", "lat": -3.3822, "country": "BI", "lng": 29.3644}, {"name": "Porto-Novo", "lat": 6.49646, "country": "BJ", "lng": 2.60359}, {"name": "Gustavia", "lat": 17.89618, "country": "BL", "lng": -62.84978}, {"name": "Hamilton", "lat": 32.2949, "country": "BM", "lng": -64.78303}, {"name": "Bandar Seri Begawan", "lat": 4.94029, "country": "BN", "lng": 114.94806}, {"name": "Sucre", "lat": -19.03332, "country": "BO", "lng": -65.26274}, {"name": "Kralendijk", "lat": 12.15, "country": "BQ", "lng": -68.26667}, {"name": "Bras\u00edlia", "lat": -15.77972, "country": "BR", "lng": -47.92972}, {"name": "Nassau", "lat": 25.05823, "country": "BS", "lng": -77.34306}, {"name": "Thimphu", "lat": 27.46609, "country": "BT", "lng": 89.64191}, {"name": "Gaborone", "lat": -24.65451, "country": "BW", "lng": 25.90859}, {"name": "Minsk", "lat": 53.9, "country": "BY", "lng": 27.56667}, {"name": "Belmopan", "lat": 17.25, "country": "BZ", "lng": -88.76667}, {"name": "Ottawa", "lat": 45.41117, "country": "CA", "lng": -75.69812}, {"name": "West Island", "lat": -12.15681, "country": "CC", "lng": 96.82251}, {"name": "Kinshasa", "lat": -4.32758, "country": "CD", "lng": 15.31357}, {"name": "Bangui", "lat": 4.36122, "country": "CF", "lng": 18.55496}, {"name": "Brazzaville", "lat": -4.26613, "country": "CG", "lng": 15.28318}, {"name": "Bern", "lat": 46.94809, "country": "CH", "lng": 7.44744}, {"name": "Yamoussoukro", "lat": 6.82055, "country": "CI", "lng": -5.27674}, {"name": "Avarua", "lat": -21.20778, "country": "CK", "lng": -159.775}, {"name": "Santiago", "lat": -33.45694, "country": "CL", "lng": -70.64827}, {"name": "Yaound\u00e9", "lat": 3.86667, "country": "CM", "lng": 11.51667}, {"name": "Beijing", "lat": 39.9075, "country": "CN", "lng": 116.39723}, {"name": "Bogot\u00e1", "lat": 4.60971, "country": "CO", "lng": -74.08175}, {"name": "San Jos\u00e9", "lat": 9.93333, "country": "CR", "lng": -84.08333}, {"name": "Havana", "lat": 23.13302, "country": "CU", "lng": -82.38304}, {"name": "Praia", "lat": 14.93152, "country": "CV", "lng": -23.51254}, {"name": "Willemstad", "lat": 12.1084, "country": "CW", "lng": -68.93354}, {"name": "Flying Fish Cove", "lat": -10.42172, "country": "CX", "lng": 105.67912}, {"name": "Nicosia", "lat": 35.16667, "country": "CY", "lng": 33.36667}, {"name": "Prague", "lat": 50.08804, "country": "CZ", "lng": 14.42076}, {"name": "Berlin", "lat": 52.52437, "country": "DE", "lng": 13.41053}, {"name": "Djibouti", "lat": 11.58901, "country": "DJ", "lng": 43.14503}, {"name": "Copenhagen", "lat": 55.67594, "country": "DK", "lng": 12.56553}, {"name": "Roseau", "lat": 15.30174, "country": "DM", "lng": -61.38808}, {"name": "Santo Domingo", "lat": 18.50012, "country": "DO", "lng": -69.98857}, {"name": "Algiers", "lat": 36.7525, "country": "DZ", "lng": 3.04197}, {"name": "Quito", "lat": -0.22985, "country": "EC", "lng": -78.52495}, {"name": "Tallinn", "lat": 59.43696, "country": "EE", "lng": 24.75353}, {"name": "Cairo", "lat": 30.06263, "country": "EG", "lng": 31.24967}, {"name": "La\u00e2youne / El Aai\u00fan", "lat": 27.16224, "country": "EH", "lng": -13.20315}, {"name": "Asmara", "lat": 15.33805, "country": "ER", "lng": 38.93184}, {"name": "Madrid", "lat": 40.4165, "country": "ES", "lng": -3.70256}, {"name": "Addis Ababa", "lat": 9.02497, "country": "ET", "lng": 38.74689}, {"name": "Helsinki", "lat": 60.16952, "country": "FI", "lng": 24.93545}, {"name": "Suva", "lat": -18.14161, "country": "FJ", "lng": 178.44149}, {"name": "Stanley", "lat": -51.7, "country": "FK", "lng": -57.85}, {"name": "Palikir - National Government Center", "lat": 6.92477, "country": "FM", "lng": 158.16109}, {"name": "T\u00f3rshavn", "lat": 62.00973, "country": "FO", "lng": -6.77164}, {"name": "Paris", "lat": 48.85341, "country": "FR", "lng": 2.3488}, {"name": "Libreville", "lat": 0.39241, "country": "GA", "lng": 9.45356}, {"name": "London", "lat": 51.50853, "country": "GB", "lng": -0.12574}, {"name": "Saint George's", "lat": 12.05644, "country": "GD", "lng": -61.74849}, {"name": "Tbilisi", "lat": 41.69411, "country": "GE", "lng": 44.83368}, {"name": "Cayenne", "lat": 4.93333, "country": "GF", "lng": -52.33333}, {"name": "Saint Peter Port", "lat": 49.45981, "country": "GG", "lng": -2.53527}, {"name": "Accra", "lat": 5.55602, "country": "GH", "lng": -0.1969}, {"name": "Gibraltar", "lat": 36.14474, "country": "GI", "lng": -5.35257}, {"name": "Nuuk", "lat": 64.18347, "country": "GL", "lng": -51.72157}, {"name": "Banjul", "lat": 13.45274, "country": "GM", "lng": -16.57803}, {"name": "Conakry", "lat": 9.53795, "country": "GN", "lng": -13.67729}, {"name": "Basse-Terre", "lat": 15.99854, "country": "GP", "lng": -61.72548}, {"name": "Malabo", "lat": 3.75, "country": "GQ", "lng": 8.78333}, {"name": "Athens", "lat": 37.97945, "country": "GR", "lng": 23.71622}, {"name": "Grytviken", "lat": -54.28111, "country": "GS", "lng": -36.5092}, {"name": "Guatemala City", "lat": 14.64072, "country": "GT", "lng": -90.51327}, {"name": "Hag\u00e5t\u00f1a", "lat": 13.47567, "country": "GU", "lng": 144.74886}, {"name": "Bissau", "lat": 11.86357, "country": "GW", "lng": -15.59767}, {"name": "Georgetown", "lat": 6.80448, "country": "GY", "lng": -58.15527}, {"name": "Hong Kong", "lat": 22.28552, "country": "HK", "lng": 114.15769}, {"name": "Tegucigalpa", "lat": 14.0818, "country": "HN", "lng": -87.20681}, {"name": "Zagreb", "lat": 45.81444, "country": "HR", "lng": 15.97798}, {"name": "Port-au-Prince", "lat": 18.53917, "country": "HT", "lng": -72.335}, {"name": "Budapest", "lat": 47.49801, "country": "HU", "lng": 19.03991}, {"name": "Jakarta", "lat": -6.21462, "country": "ID", "lng": 106.84513}, {"name": "Dublin", "lat": 53.33306, "country": "IE", "lng": -6.24889}, {"name": "Douglas", "lat": 54.15, "country": "IM", "lng": -4.48333}, {"name": "New Delhi", "lat": 28.63576, "country": "IN", "lng": 77.22445}, {"name": "Baghdad", "lat": 33.34058, "country": "IQ", "lng": 44.40088}, {"name": "Tehr\u0101n", "lat": 35.69439, "country": "IR", "lng": 51.42151}, {"name": "Reykjav\u00edk", "lat": 64.13548, "country": "IS", "lng": -21.89541}, {"name": "Rome", "lat": 41.89193, "country": "IT", "lng": 12.51133}, {"name": "Saint Helier", "lat": 49.18804, "country": "JE", "lng": -2.10491}, {"name": "Kingston", "lat": 17.99702, "country": "JM", "lng": -76.79358}, {"name": "Amman", "lat": 31.95522, "country": "JO", "lng": 35.94503}, {"name": "Tokyo", "lat": 35.6895, "country": "JP", "lng": 139.69171}, {"name": "Nairobi", "lat": -1.28333, "country": "KE", "lng": 36.81667}, {"name": "Bishkek", "lat": 42.87, "country": "KG", "lng": 74.59}, {"name": "Phnom Penh", "lat": 11.56245, "country": "KH", "lng": 104.91601}, {"name": "Tarawa", "lat": 1.3278, "country": "KI", "lng": 172.97696}, {"name": "Moroni", "lat": -11.70216, "country": "KM", "lng": 43.25506}, {"name": "Basseterre", "lat": 17.29484, "country": "KN", "lng": -62.7261}, {"name": "Pyongyang", "lat": 39.03385, "country": "KP", "lng": 125.75432}, {"name": "Seoul", "lat": 37.566, "country": "KR", "lng": 126.9784}, {"name": "Kuwait City", "lat": 29.36972, "country": "KW", "lng": 47.97833}, {"name": "George Town", "lat": 19.2866, "country": "KY", "lng": -81.37436}, {"name": "Astana", "lat": 51.1801, "country": "KZ", "lng": 71.44598}, {"name": "Vientiane", "lat": 17.96667, "country": "LA", "lng": 102.6}, {"name": "Beirut", "lat": 33.88894, "country": "LB", "lng": 35.49442}, {"name": "Castries", "lat": 13.9957, "country": "LC", "lng": -61.00614}, {"name": "Vaduz", "lat": 47.14151, "country": "LI", "lng": 9.52154}, {"name": "Colombo", "lat": 6.93194, "country": "LK", "lng": 79.84778}, {"name": "Monrovia", "lat": 6.30054, "country": "LR", "lng": -10.7969}, {"name": "Maseru", "lat": -29.31667, "country": "LS", "lng": 27.48333}, {"name": "Vilnius", "lat": 54.68916, "country": "LT", "lng": 25.2798}, {"name": "Luxembourg", "lat": 49.61167, "country": "LU", "lng": 6.13}, {"name": "Riga", "lat": 56.946, "country": "LV", "lng": 24.10589}, {"name": "Tripoli", "lat": 32.87519, "country": "LY", "lng": 13.18746}, {"name": "Rabat", "lat": 34.01325, "country": "MA", "lng": -6.83255}, {"name": "Monaco", "lat": 43.73333, "country": "MC", "lng": 7.41667}, {"name": "Chi\u015fin\u0103u", "lat": 47.00556, "country": "MD", "lng": 28.8575}, {"name": "Podgorica", "lat": 42.44111, "country": "ME", "lng": 19.26361}, {"name": "Marigot", "lat": 18.06667, "country": "MF", "lng": -63.08333}, {"name": "Antananarivo", "lat": -18.91368, "country": "MG", "lng": 47.53613}, {"name": "Majuro", "lat": 7.08971, "country": "MH", "lng": 171.38027}, {"name": "Skopje", "lat": 41.99646, "country": "MK", "lng": 21.43141}, {"name": "Bamako", "lat": 12.65, "country": "ML", "lng": -8.0}, {"name": "Nay Pyi Taw", "lat": 19.745, "country": "MM", "lng": 96.12972}, {"name": "Ulaanbaatar", "lat": 47.90771, "country": "MN", "lng": 106.88324}, {"name": "Macau", "lat": 22.20056, "country": "MO", "lng": 113.54611}, {"name": "Saipan", "lat": 15.21233, "country": "MP", "lng": 145.7545}, {"name": "Fort-de-France", "lat": 14.60892, "country": "MQ", "lng": -61.07334}, {"name": "Nouakchott", "lat": 18.08581, "country": "MR", "lng": -15.9785}, {"name": "Plymouth", "lat": 16.70555, "country": "MS", "lng": -62.21292}, {"name": "Valletta", "lat": 35.89972, "country": "MT", "lng": 14.51472}, {"name": "Port Louis", "lat": -20.16194, "country": "MU", "lng": 57.49889}, {"name": "Male", "lat": 4.1748, "country": "MV", "lng": 73.50888}, {"name": "Lilongwe", "lat": -13.96692, "country": "MW", "lng": 33.78725}, {"name": "Mexico City", "lat": 19.42847, "country": "MX", "lng": -99.12766}, {"name": "Kuala Lumpur", "lat": 3.1412, "country": "MY", "lng": 101.68653}, {"name": "Maputo", "lat": -25.96553, "country": "MZ", "lng": 32.58322}, {"name": "Windhoek", "lat": -22.55941, "country": "NA", "lng": 17.08323}, {"name": "Noum\u00e9a", "lat": -22.27631, "country": "NC", "lng": 166.4572}, {"name": "Niamey", "lat": 13.51366, "country": "NE", "lng": 2.1098}, {"name": "Kingston", "lat": -29.05459, "country": "NF", "lng": 167.96628}, {"name": "Abuja", "lat": 9.05785, "country": "NG", "lng": 7.49508}, {"name": "Managua", "lat": 12.13282, "country": "NI", "lng": -86.2504}, {"name": "Amsterdam", "lat": 52.37403, "country": "NL", "lng": 4.88969}, {"name": "Oslo", "lat": 59.91273, "country": "NO", "lng": 10.74609}, {"name": "Kathmandu", "lat": 27.70169, "country": "NP", "lng": 85.3206}, {"name": "Alofi", "lat": -19.05952, "country": "NU", "lng": -169.91867}, {"name": "Wellington", "lat": -41.28664, "country": "NZ", "lng": 174.77557}, {"name": "Muscat", "lat": 23.61387, "country": "OM", "lng": 58.5922}, {"name": "Panam\u00e1", "lat": 8.9936, "country": "PA", "lng": -79.51973}, {"name": "Lima", "lat": -12.04318, "country": "PE", "lng": -77.02824}, {"name": "Papeete", "lat": -17.53733, "country": "PF", "lng": -149.5665}, {"name": "Port Moresby", "lat": -9.44314, "country": "PG", "lng": 147.17972}, {"name": "Manila", "lat": 14.6042, "country": "PH", "lng": 120.9822}, {"name": "Islamabad", "lat": 33.72148, "country": "PK", "lng": 73.04329}, {"name": "Warsaw", "lat": 52.22977, "country": "PL", "lng": 21.01178}, {"name": "Saint-Pierre", "lat": 46.77914, "country": "PM", "lng": -56.1773}, {"name": "Adamstown", "lat": -25.06597, "country": "PN", "lng": -130.10147}, {"name": "San Juan", "lat": 18.46633, "country": "PR", "lng": -66.10572}, {"name": "Lisbon", "lat": 38.71667, "country": "PT", "lng": -9.13333}, {"name": "Melekeok", "lat": 7.50043, "country": "PW", "lng": 134.62355}, {"name": "Asunci\u00f3n", "lat": -25.30066, "country": "PY", "lng": -57.63591}, {"name": "Doha", "lat": 25.27932, "country": "QA", "lng": 51.52245}, {"name": "Saint-Denis", "lat": -20.88231, "country": "RE", "lng": 55.4504}, {"name": "Bucharest", "lat": 44.43225, "country": "RO", "lng": 26.10626}, {"name": "Belgrade", "lat": 44.80401, "country": "RS", "lng": 20.46513}, {"name": "Moscow", "lat": 55.75222, "country": "RU", "lng": 37.61556}, {"name": "Kigali", "lat": -1.94995, "country": "RW", "lng": 30.05885}, {"name": "Riyadh", "lat": 24.68773, "country": "SA", "lng": 46.72185}, {"name": "Honiara", "lat": -9.43333, "country": "SB", "lng": 159.95}, {"name": "Victoria", "lat": -4.61667, "country": "SC", "lng": 55.45}, {"name": "Khartoum", "lat": 15.55177, "country": "SD", "lng": 32.53241}, {"name": "Stockholm", "lat": 59.33258, "country": "SE", "lng": 18.0649}, {"name": "Singapore", "lat": 1.28967, "country": "SG", "lng": 103.85007}, {"name": "Jamestown", "lat": -15.93872, "country": "SH", "lng": -5.71675}, {"name": "Ljubljana", "lat": 46.05108, "country": "SI", "lng": 14.50513}, {"name": "Longyearbyen", "lat": 78.22334, "country": "SJ", "lng": 15.64689}, {"name": "Bratislava", "lat": 48.14816, "country": "SK", "lng": 17.10674}, {"name": "Freetown", "lat": 8.484, "country": "SL", "lng": -13.22994}, {"name": "San Marino", "lat": 43.93667, "country": "SM", "lng": 12.44639}, {"name": "Dakar", "lat": 14.6937, "country": "SN", "lng": -17.44406}, {"name": "Mogadishu", "lat": 2.03711, "country": "SO", "lng": 45.34375}, {"name": "Paramaribo", "lat": 5.86638, "country": "SR", "lng": -55.16682}, {"name": "Juba", "lat": 4.85165, "country": "SS", "lng": 31.58247}, {"name": "S\u00e3o Tom\u00e9", "lat": 0.33654, "country": "ST", "lng": 6.72732}, {"name": "San Salvador", "lat": 13.68935, "country": "SV", "lng": -89.18718}, {"name": "Philipsburg", "lat": 18.026, "country": "SX", "lng": -63.04582}, {"name": "Damascus", "lat": 33.5102, "country": "SY", "lng": 36.29128}, {"name": "Mbabane", "lat": -26.31667, "country": "SZ", "lng": 31.13333}, {"name": "Cockburn Town", "lat": 21.46122, "country": "TC", "lng": -71.14188}, {"name": "N'Djamena", "lat": 12.10672, "country": "TD", "lng": 15.0444}, {"name": "Port-aux-Fran\u00e7ais", "lat": -49.35, "country": "TF", "lng": 70.21667}, {"name": "Lom\u00e9", "lat": 6.13748, "country": "TG", "lng": 1.21227}, {"name": "Bangkok", "lat": 13.75398, "country": "TH", "lng": 100.50144}, {"name": "Dushanbe", "lat": 38.53575, "country": "TJ", "lng": 68.77905}, {"name": "Dili", "lat": -8.55861, "country": "TL", "lng": 125.57361}, {"name": "Ashgabat", "lat": 37.95, "country": "TM", "lng": 58.38333}, {"name": "Tunis", "lat": 36.81897, "country": "TN", "lng": 10.16579}, {"name": "Nuku\u2018alofa", "lat": -21.13938, "country": "TO", "lng": -175.2018}, {"name": "Ankara", "lat": 39.91987, "country": "TR", "lng": 32.85427}, {"name": "Port-of-Spain", "lat": 10.66668, "country": "TT", "lng": -61.51889}, {"name": "Funafuti", "lat": -8.52425, "country": "TV", "lng": 179.19417}, {"name": "Taipei", "lat": 25.04776, "country": "TW", "lng": 121.53185}, {"name": "Dodoma", "lat": -6.17221, "country": "TZ", "lng": 35.73947}, {"name": "Kiev", "lat": 50.45466, "country": "UA", "lng": 30.5238}, {"name": "Kampala", "lat": 0.31628, "country": "UG", "lng": 32.58219}, {"name": "Washington, D.C.", "lat": 38.89511, "country": "US", "lng": -77.03637}, {"name": "Montevideo", "lat": -34.90328, "country": "UY", "lng": -56.18816}, {"name": "Tashkent", "lat": 41.26465, "country": "UZ", "lng": 69.21627}, {"name": "Vatican City", "lat": 41.90236, "country": "VA", "lng": 12.45332}, {"name": "Kingstown", "lat": 13.15872, "country": "VC", "lng": -61.22475}, {"name": "Caracas", "lat": 10.48801, "country": "VE", "lng": -66.87919}, {"name": "Road Town", "lat": 18.42693, "country": "VG", "lng": -64.62079}, {"name": "Charlotte Amalie", "lat": 18.3419, "country": "VI", "lng": -64.9307}, {"name": "Hanoi", "lat": 21.0245, "country": "VN", "lng": 105.84117}, {"name": "Port-Vila", "lat": -17.73381, "country": "VU", "lng": 168.32188}, {"name": "Mata-Utu", "lat": -13.28163, "country": "WF", "lng": -176.17453}, {"name": "Apia", "lat": -13.83333, "country": "WS", "lng": -171.76666}, {"name": "Pristina", "lat": 42.67272, "country": "XK", "lng": 21.16688}, {"name": "Sanaa", "lat": 15.35472, "country": "YE", "lng": 44.20667}, {"name": "Mamoudzou", "lat": -12.78234, "country": "YT", "lng": 45.22878}, {"name": "Pretoria", "lat": -25.74486, "country": "ZA", "lng": 28.18783}, {"name": "Lusaka", "lat": -15.40669, "country": "ZM", "lng": 28.28713}, {"name": "Harare", "lat": -17.82772, "country": "ZW", "lng": 31.05337}]